     2.11           OBSERVATION DATA    M (MIXED)           RINEX VERSION / TYPE
teqc  2019Feb25     NOAA/NOS/NGS/CORS   20191007 01:06:53UTCPGM / RUN BY / DATE
Linux 2.4.21-27.ELsmp|Opteron|gcc|Linux 64|=+               COMMENT
+30.311691164 (latitude)                                    COMMENT
-097.75630896 (longitude)                                   COMMENT
+193.873      (elevation)                                   COMMENT
+.000000      (antenna height)                              COMMENT
BIT 2 OF LLI FLAGS DATA COLLECTED UNDER A/S CONDITION       COMMENT
TXAU                                                        MARKER NAME
3                                                           MARKER NUMBER
Darrell Thames      TXDOT                                   OBSERVER / AGENCY
5827R40066          TRIMBLE ALLOY       5.37                REC # / TYPE / VERS
30518869            TRM55971.00     NONE                    ANT # / TYPE
  -743773.7240 -5460645.9210  3200347.8320                  APPROX POSITION XYZ
        0.0000        0.0000        0.0000                  ANTENNA: DELTA H/E/N
     1     1                                                WAVELENGTH FACT L1/2
    11    L1    L2    L5    C1    P1    C2    P2    C5    S1# / TYPES OF OBSERV
          S2    S5                                          # / TYPES OF OBSERV
     5.0000                                                 INTERVAL
    18                                                      LEAP SECONDS
 SNR is mapped to RINEX snr flag value [0-9]                COMMENT
  L1 & L2: min(max(int(snr_dBHz/6), 0), 9)                  COMMENT
teqc.e windowed: start @ 2019 Oct  7 00:00:00.000           COMMENT
teqc.e windowed: delta = 3600.000 sec                       COMMENT
teqc.e edited: all SBAS satellites excluded                 COMMENT
teqc.e edited: all QZSS satellites excluded                 COMMENT
  2019    10     7     0     0    0.0000000     GPS         TIME OF FIRST OBS
                                                            END OF HEADER
 19 10  7  0  0  0.0000000  0 19G01G03G10G11G14G16G18G22G25G26G31G32
                                R05R06R07R09R15R16R22
 119116328.523 7  92817918.044 7  88950504.638 8  22667080.594
  22667086.570    22667087.750    22667083.668          47.700          44.300
        49.200
 127613610.448 6  99439198.041 7  95295898.047 7  24284066.148
  24284072.328    24284072.289    24284070.320          40.700          42.400
        45.000
 119197275.908 7  92880992.672 7  89010953.195 8  22682482.047
  22682488.625    22682488.586    22682484.270          45.900          45.500
        48.400
 127375686.500 6  99253803.34343                  24238792.008
                  24238795.410                          41.200          19.900

 111999964.557 8  87272739.41946                  21312875.023
                  21312877.484                          48.100          38.800

 131858020.814 6 102746517.57442                  25091743.789
                  25091748.289                          36.900          16.900

 116890792.052 7  91083768.43045                  22243578.188
                  22243582.941                          46.200          33.000

 120228074.153 7  93684269.58045                  22878648.078
                  22878649.430                          47.200          34.600

 121442310.744 7  94630376.503 7  90687449.142 7  23109693.242
  23109699.586    23109699.289    23109697.426          43.800          42.300
        47.000
 120099332.944 7  93583925.026 7  89684596.492 7  22854139.891
  22854146.570    22854147.059    22854143.391          44.500          43.800
        46.300
 105372804.522 8  82108696.655 8                  20051762.172
  20051765.270    20051765.027                          51.900          51.200

 114991114.182 8  89603475.877 7  85870000.019 8  21882072.023
  21882077.570    21882076.680    21882074.223          48.100          46.200
        49.500
 121395498.688 7  94418732.696 6                  22709532.594    22709531.367
  22709535.660    22709535.453                          44.700          41.600

 106246183.669 7                                  19910483.836    19910482.715
                                                        44.900

 115960558.423 7  90191553.730 7                  21662400.250    21662399.363
  21662403.754    21662403.504                          47.600          46.100

 108067624.021 8  84052610.608 8                  20237584.227    20237582.902
  20237584.773    20237585.211                          48.800          49.200

 128745838.434 6 100135666.636 6                  24093018.250    24093018.773
  24093022.586    24093021.914                          40.000          37.800

 106495876.029 7  82830141.362 7                  19936240.664    19936239.617
  19936240.023    19936241.336                          45.900          44.800

 125530999.393 7  97635220.795 6                  23516186.281    23516185.023
  23516189.219    23516190.176                          43.000          40.900

 19 10  7  0  0  5.0000000  0 19G01G03G10G11G14G16G18G22G25G26G31G32
                                R05R06R07R09R15R16R22
 119116662.122 7  92818177.997 7  88950753.752 8  22667143.461
  22667150.488    22667151.180    22667147.023          47.300          44.900
        49.300
 127596878.911 6  99426160.487 7  95283403.723 7  24280882.047
  24280888.879    24280888.730    24280886.445          40.600          42.500
        45.600
 119211684.405 7  92892220.085 7  89021712.782 8  22685223.523
  22685229.891    22685230.402    22685226.039          45.100          46.300
        48.500
 127383067.141 6  99259554.49743                  24240196.508
                  24240199.348                          40.400          19.000

 112002099.286 7  87274402.84346                  21313280.977
                  21313283.496                          47.800          38.600

 131840235.140 6 102732658.60042                  25088358.711
                  25088363.734                          36.500          15.600

 116899213.780 7  91090330.80645                  22245180.875
                  22245185.492                          46.300          32.500

 120214295.193 7  93673532.73245                  22876026.445
                  22876027.496                          47.000          34.600

 121447834.533 7  94634680.766 7  90691574.057 7  23110744.484
  23110750.520    23110750.445    23110748.633          44.200          42.000
        46.700
 120083535.471 7  93571615.318 7  89672799.706 7  22851133.617
  22851140.445    22851140.664    22851137.160          44.500          43.700
        47.100
 105376090.023 8  82111256.791 8                  20052387.766
  20052390.680    20052390.164                          51.900          51.200

 114997763.601 8  89608657.245 7  85874965.487 8  21883337.055
  21883342.242    21883342.063    21883339.477          48.000          45.600
        50.500
 121406703.925 7  94427447.891 6                  22711627.992    22711627.465
  22711632.445    22711631.855                          44.300          41.700

 106244041.578 7                                  19910083.008    19910081.371
                                                        44.600

 115947278.870 7  90181225.189 7                  21659919.477    21659918.641
  21659923.203    21659922.844                          47.600          46.600

 108052942.163 8  84041191.400 8                  20234833.867    20234833.715
  20234835.953    20234835.824                          49.100          49.300

 128766616.794 6 100151827.626 6                  24096906.813    24096906.762
  24096909.270    24096909.852                          38.800          37.200

 106505312.306 7  82837480.688 7                  19938006.727    19938006.117
  19938006.988    19938007.813                          45.900          45.100

 125540093.538 7  97642294.006 6                  23517889.758    23517888.840
  23517892.965    23517893.602                          42.600          40.700

 19 10  7  0  0 10.0000000  0 19G01G03G10G11G14G16G18G22G25G26G31G32
                                R05R06R07R09R15R16R22
 119117011.452 7  92818450.179 7  88951014.600 8  22667210.453
  22667216.703    22667217.563    22667213.414          47.600          45.000
        48.800
 127580148.674 6  99413123.974 7  95270910.407 7  24277698.844
  24277704.875    24277704.906    24277702.688          39.600          42.700
        44.700
 119226101.759 7  92903454.369 7  89032478.988 8  22687967.461
  22687973.484    22687973.703    22687969.602          45.400          46.300
        48.700
 127390457.021 6  99265312.83143                  24241602.656
                  24241605.410                          40.700          20.100

 112004236.727 7  87276068.37746                  21313687.109
                  21313690.418                          46.500          38.900

 131822445.075 6 102718796.26342                  25084973.508
                  25084978.711                          36.000          17.400

 116907648.322 7  91096903.17545                  22246786.305
                  22246790.211                          46.100          32.900

 120200521.860 7  93662800.26745                  22873405.313
                  22873406.461                          46.900          34.300

 121453374.371 7  94638997.535 6  90695710.951 7  23111798.172
  23111805.262    23111804.523    23111802.766          44.100          41.700
        46.600
 120067742.331 7  93559308.998 7  89661006.134 7  22848128.086
  22848134.992    22848135.219    22848131.773          43.900          43.600
        46.300
 105379389.833 8  82113828.073 8                  20053015.648
  20053018.398    20053018.086                          51.600          51.500

 115004416.043 7  89613840.962 7  85879933.216 8  21884603.289
  21884608.617    21884608.082    21884605.336          47.200          45.700
        50.400
 121417917.249 7  94436169.353 6                  22713725.688    22713725.352
  22713729.398    22713729.625                          44.400          41.800

 106241908.728 7                                  19909683.914    19909681.574
                                                        44.800

 115933999.977 7  90170897.167 7                  21657439.016    21657438.223
  21657441.805    21657442.168                          47.800          46.300

 108038276.409 8  84029784.706 8                  20232088.109    20232087.336
  20232089.102    20232089.313                          48.600          49.100

 128787399.282 6 100167991.824 6                  24100795.961    24100796.410
  24100799.531    24100799.133                          38.600          37.200

 106514768.442 7  82844835.454 7                  19939775.914    19939776.285
  19939776.840    19939778.000                          45.300          44.500

 125549201.449 7  97649377.932 6                  23519596.984    23519594.348
  23519599.516    23519600.094                          42.200          41.300

 19 10  7  0  0 15.0000000  0 19G01G03G10G11G14G16G18G22G25G26G31G32
                                R05R06R07R09R15R16R22
 119117376.059 7  92818734.289 7  88951286.869 8  22667279.773
  22667286.426    22667287.219    22667282.852          47.200          44.000
        48.600
 127563419.343 6  99400088.138 7  95258417.738 7  24274514.977
  24274521.840    24274521.730    24274519.301          40.100          42.600
        44.700
 119240527.544 7  92914695.242 7  89043251.473 8  22690712.492
  22690718.715    22690718.926    22690714.797          45.500          45.700
        48.300
 127397855.776 6  99271078.11243                  24243010.047
                  24243013.270                          41.100          20.600

 112006376.463 7  87277735.70346                  21314094.969
                  21314097.656                          47.600          38.400

 131804650.181 6 102704930.11642                  25081587.117
                  25081592.207                          36.300          16.300

 116916095.196 7  91103485.15745                  22248392.984
                  22248397.664                          46.600          31.800

 120186753.794 7  93652071.90745                  22870785.016
                  22870786.527                          47.200          34.900

 121458929.847 7  94643326.459 6  90699859.494 7  23112855.570
  23112862.047    23112861.754    23112859.891          43.600          41.700
        47.000
 120051953.105 7  93547005.715 7  89649215.502 7  22845123.430
  22845130.379    22845130.531    22845127.086          44.100          43.900
        46.400
 105382703.506 8  82116410.164 8                  20053646.250
  20053648.805    20053648.547                          51.100          51.000

 115011071.132 7  89619026.739 7  85884902.922 8  21885869.906
  21885874.797    21885874.422    21885871.770          47.500          45.500
        49.900
 121429138.228 7  94444896.783 7                  22715825.742    22715824.484
  22715828.137    22715828.883                          44.500          42.200

 106239784.599 7                                  19909285.016    19909283.699
                                                        44.800

 115920721.367 7  90160569.369 7                  21654957.828    21654957.535
  21654962.305    21654961.477                          47.300          46.100

 108023626.243 8  84018390.144 8                  20229344.094    20229343.727
  20229345.512    20229345.855                          48.100          48.800

 128808185.421 6 100184158.819 6                  24104686.156    24104685.414
  24104688.203    24104689.164                          38.700          37.000

 106524243.906 7  82852205.253 7                  19941550.719    19941549.910
  19941550.859    19941551.969                          45.300          44.700

 125558322.707 7  97656472.231 6                  23521305.492    23521303.965
  23521308.121    23521308.719                          42.100          41.200

 19 10  7  0  0 20.0000000  0 19G01G03G10G11G14G16G18G22G25G26G31G32
                                R05R06R07R09R15R16R22
 119117756.276 7  92819030.560 7  88951570.783 8  22667351.867
  22667358.859    22667359.500    22667355.141          46.800          44.700
        49.000
 127546691.301 6  99387053.327 7  95245926.005 7  24271331.766
  24271338.465    24271338.602    24271336.359          40.800          42.600
        45.100
 119254962.047 7  92925942.908 7  89054030.494 8  22693459.617
  22693465.492    22693465.754    22693461.531          46.400          46.000
        48.800
 127405263.716 6  99276850.51943                  24244420.070
                  24244423.109                          41.400          20.900

 112008518.797 7  87279405.05946                  21314502.141
                  21314505.250                          47.800          38.300

 131786850.890 6 102691060.60842                  25078200.273
                  25078205.047                          37.000          16.300

 116924554.846 7  91110077.08345                  22250002.836
                  22250007.430                          45.800          30.900

 120172991.297 7  93641347.88345                  22868166.195
                  22868167.129                          46.900          35.100

 121464501.232 7  94647667.815 7  90704019.963 7  23113915.352
  23113922.254    23113921.898    23113920.020          43.000          42.300
        47.100
 120036168.183 7  93534705.772 7  89637428.067 7  22842120.125
  22842126.980    22842127.004    22842123.125          44.000          44.200
        46.700
 105386031.426 8  82119003.352 8                  20054279.680
  20054282.227    20054281.805                          51.600          50.900

 115017729.176 8  89624214.827 7  85889874.835 8  21887136.477
  21887141.887    21887141.465    21887138.703          48.400          46.100
        49.900
 121440367.231 7  94453630.422 7                  22717925.297    22717924.953
  22717928.281    22717929.527                          43.900          42.200

 106237669.533 7                                  19908888.703    19908887.102
                                                        45.000

 115907443.141 7  90150241.853 7                  21652477.672    21652476.813
  21652481.039    21652480.926                          47.500          46.000

 108008992.108 8  84007008.044 8                  20226603.898    20226603.152
  20226605.734    20226605.316                          48.800          49.600

 128828975.578 6 100200328.956 6                  24108575.602    24108575.906
  24108578.938    24108579.855                          38.100          39.100

 106533739.007 7  82859590.335 7                  19943327.500    19943327.531
  19943327.688    19943329.258                          45.800          44.500

 125567457.561 7  97663577.104 6                  23523015.820    23523014.867
  23523019.410    23523020.027                          42.300          41.100

 19 10  7  0  0 25.0000000  0 19G01G03G10G11G14G16G18G22G25G26G31G32
                                R05R06R07R09R15R16R22
 119118151.872 7  92819338.827 7  88951866.212 8  22667427.398
  22667433.711    22667434.820    22667430.512          47.200          44.400
        48.800
 127529964.319 6  99374019.314 6  95233435.076 7  24268148.844
  24268154.621    24268155.328    24268153.188          40.200          41.600
        45.400
 119269405.127 7  92937197.257 7  89064815.905 8  22696207.156
  22696213.957    22696214.348    22696210.027          45.400          46.000
        48.000
 127412680.640 6  99282629.96943                  24245831.461
                  24245834.449                          40.900          20.900

 112010663.590 8  87281076.31646                  21314910.625
                  21314913.410                          48.600          38.600

 131769046.969 6 102677187.44942                  25074812.813
                  25074816.871                          38.200          16.900

 116933026.959 7  91116678.72845                  22251615.805
                  22251619.594                          46.100          31.900

 120159234.196 7  93630628.07045                  22865548.352
                  22865549.359                          46.700          33.700

 121470088.378 7  94652021.438 6  90708192.189 7  23114979.023
  23114985.105    23114985.004    23114983.285          44.200          41.200
        47.500
 120020387.340 7  93522409.041 7  89625643.695 7  22839116.680
  22839123.738    22839123.723    22839120.234          43.800          44.100
        46.600
 105389373.352 8  82121607.448 8                  20054915.242
  20054918.047    20054917.922                          51.500          50.600

 115024389.991 7  89629405.067 7  85894848.812 8  21888404.273
  21888409.391    21888409.063    21888406.223          47.900          45.700
        49.600
 121451604.087 7  94462370.229 7                  22720027.750    22720026.820
  22720031.965    22720031.668                          44.100          42.500

 106235563.561 7                                  19908493.531    19908492.625
                                                        45.000

 115894165.477 7  90139914.787 7                  21649997.633    21649996.305
  21650001.484    21650000.719                          47.300          46.600

 107994373.800 8  83995638.265 8                  20223866.078    20223865.531
  20223867.762    20223867.691                          48.900          49.000

 128849769.534 6 100216502.028 6                  24112468.789    24112467.332
  24112470.758    24112471.344                          38.900          39.400

 106543253.564 7  82866990.563 7                  19945109.352    19945108.422
  19945109.289    19945110.574                          45.800          44.900

 125576605.937 7  97670692.508 6                  23524729.836    23524728.512
  23524732.672    23524733.668                          42.300          40.500

 19 10  7  0  0 30.0000000  0 19G01G03G10G11G14G16G18G22G25G26G31G32
                                R05R06R07R09R15R16R22
 119118563.119 7  92819659.266 7  88952173.310 8  22667505.461
  22667511.848    22667512.867    22667508.770          46.800          44.700
        49.200
 127513238.586 6  99360986.289 6  95220945.119 7  24264965.820
  24264972.207    24264971.773    24264970.336          40.200          40.200
        45.500
 119283856.951 7  92948458.402 7  89075607.855 8  22698957.727
  22698964.016    22698964.211    22698960.074          45.100          45.900
        48.400
 127420106.754 6  99288416.52943                  24247244.469
                  24247247.672                          39.200          20.400

 112012811.058 7  87282749.66746                  21315319.047
                  21315322.098                          47.800          38.800

 131751238.671 6 102663310.80742                  25071423.508
                  25071427.777                          37.300          17.800

 116941511.771 7  91123290.26745                  22253229.805
                  22253234.027                          45.000          31.900

 120145482.672 7  93619912.60145                  22862931.844
                  22862932.621                          47.200          34.000

 121475691.463 7  94656387.480 6  90712376.310 7  23116045.109
  23116051.789    23116051.293    23116049.551          43.900          41.200
        46.700
 120004610.839 7  93510115.646 7  89613862.538 7  22836114.344
  22836121.031    22836121.879    22836118.047          43.800          43.900
        46.900
 105392729.478 8  82124222.619 8                  20055554.125
  20055556.672    20055556.449                          52.400          51.000

 115031053.774 8  89634597.635 7  85899825.024 8  21889672.031
  21889677.582    21889677.082    21889674.309          48.000          45.800
        49.600
 121462848.997 7  94471116.267 6                  22722131.516    22722130.738
  22722134.781    22722135.484                          44.200          41.300

 106233466.753 7                                  19908101.438    19908099.707
                                                        44.500

 115880888.321 7  90129588.113 7                  21647516.750    21647516.266
  21647520.387    21647520.535                          47.500          46.900

 107979771.524 8  83984280.951 8                  20221131.383    20221131.238
  20221133.168    20221133.066                          49.300          49.500

 128870567.456 6 100232678.204 6                  24116359.797    24116358.570
  24116363.422    24116363.770                          38.900          39.800

 106552787.782 7  82874406.064 7                  19946893.859    19946893.527
  19946894.480    19946895.262                          45.500          45.000

 125585767.942 7  97677818.515 6                  23526446.922    23526444.777
  23526449.879    23526450.160                          42.100          40.800

 19 10  7  0  0 35.0000000  0 19G01G03G10G11G14G16G18G22G25G26G31G32
                                R05R06R07R09R15R16R22
 119118989.761 7  92819991.716 7  88952491.899 8  22667586.656
  22667593.195    22667594.148    22667590.078          47.000          44.600
        48.700
 127496513.968 6  99347954.117 7  95208455.967 7  24261782.891
  24261789.945    24261788.707    24261787.824          40.200          42.300
        45.500
 119298317.326 7  92959726.231 7  89086406.174 8  22701709.203
  22701716.133    22701716.066    22701711.586          45.500          45.700
        48.100
 127427541.837 6  99294210.09043                  24248658.969
                  24248662.473                          39.400          20.400

 112014960.923 8  87284424.89246                  21315728.297
                  21315731.219                          48.300          38.500

 131733425.798 6 102649430.62842                  25068033.125
                  25068037.836                          37.000          15.600

 116950009.027 7  91129911.50245                  22254846.516
                  22254850.934                          44.700          31.400

 120131736.529 7  93609201.32845                  22860315.922
                  22860316.785                          47.000          34.400

 121481310.310 7  94660765.805 6  90716572.210 7  23117114.688
  23117121.188    23117120.582    23117119.031          42.800          41.300
        46.200
 119988838.450 7  93497825.501 7  89602084.474 7  22833112.695
  22833120.227    22833120.320    22833116.910          43.400          44.600
        46.800
 105396099.589 8  82126848.691 8                  20056195.141
  20056198.234    20056197.730                          51.600          51.500

 115037720.360 8  89639792.368 7  85904803.309 8  21890940.898
  21890946.008    21890945.766    21890943.020          48.300          46.300
        49.900
 121474101.677 7  94479868.361 7                  22724236.203    22724235.523
  22724240.469    22724240.297                          43.900          42.000

 106231378.931 7                                  19907710.383    19907708.445
                                                        45.100

 115867611.610 7  90119261.794 7                  21645037.086    21645036.039
  21645040.570    21645040.285                          47.200          46.900

 107965185.243 8  83972936.070 8                  20218400.180    20218399.566
  20218401.484    20218401.555                          48.800          49.500

 128891369.106 6 100248857.254 6                  24120252.750    24120250.973
  24120256.996    24120256.586                          38.000          40.000

 106562341.457 7  82881836.697 7                  19948682.891    19948681.656
  19948682.883    19948683.863                          45.700          45.000

 125594943.474 7  97684954.990 6                  23528166.188    23528163.953
  23528168.648    23528169.254                          42.800          41.400

 19 10  7  0  0 40.0000000  0 19G01G03G10G11G14G16G18G22G25G26G31G32
                                R05R06R07R09R15R16R22
 119119431.987 7  92820336.303 7  88952822.136 8  22667670.609
  22667677.105    22667678.285    22667674.316          46.600          44.700
        48.600
 127479790.593 6  99334922.964 7  95195967.770 7  24258600.000
  24258607.797    24258607.039    24258605.430          39.400          42.100
        46.000
 119312786.391 7  92971000.822 7  89097210.996 8  22704463.109
  22704469.434    22704469.563    22704464.902          46.000          45.900
        48.000
 127434985.981 6  99300010.73143                  24250076.609
                  24250079.090                          40.200          19.300

 112017113.377 7  87286102.12846                  21316137.820
                  21316140.871                          47.800          38.500

 131715608.444 6 102635546.98042                  25064642.969
                  25064647.125                          38.600          16.900

 116958518.866 7  91136542.54045                  22256466.477
                  22256470.273                          45.400          30.700

 120117996.000 7  93598494.42545                  22857701.219
                  22857701.988                          46.800          34.000

 121486945.044 7  94665156.533 6  90720779.969 7  23118186.289
  23118193.250    23118192.797    23118191.141          43.100          41.700
        47.000
 119973070.355 7  93485538.710 7  89590309.636 7  22830112.383
  22830119.270    22830119.738    22830116.598          42.600          43.900
        46.700
 105399483.844 8  82129485.766 8                  20056839.320
  20056842.047    20056841.723                          51.600          51.300

 115044389.859 8  89644989.388 7  85909783.784 8  21892209.992
  21892215.789    21892214.871    21892212.227          48.500          46.000
        49.600
 121485362.471 7  94488626.715 7                  22726342.102    22726342.090
  22726346.652    22726347.039                          43.800          42.100

 106229300.298 7                                  19907320.289    19907319.004
                                                        44.800

 115854335.431 7  90108935.886 7                  21642557.492    21642555.988
  21642560.852    21642560.219                          47.000          46.700

 107950614.923 8  83961603.617 8                  20215671.711    20215671.035
  20215673.344    20215672.973                          48.900          49.100

 128912174.687 6 100265039.348 6                  24124146.195    24124145.039
  24124150.660    24124150.445                          37.300          40.600

 106571914.685 7  82889282.549 7                  19950474.961    19950473.582
  19950474.500    19950476.039                          45.500          45.200

 125604132.446 7  97692101.988 6                  23529886.844    23529885.176
  23529888.930    23529890.742                          42.600          40.900

 19 10  7  0  0 45.0000000  0 19G01G03G10G11G14G16G18G22G25G26G31G32
                                R05R06R07R09R15R16R22
 119119889.692 7  92820692.951 7  88953163.916 8  22667757.930
  22667764.426    22667765.305    22667761.367          46.600          44.500
        48.700
 127463068.420 6  99321892.697 6  95183480.448 7  24255418.672
  24255424.742    24255424.988    24255422.914          39.500          41.600
        45.000
 119327264.045 7  92982282.114 7  89108022.236 8  22707217.656
  22707224.586    22707224.543    22707220.109          45.600          45.500
        48.000
 127442439.167 6  99305818.40943                  24251494.492
                  24251498.063                          39.800          19.900

 112019268.327 8  87287781.30946                  21316548.055
                  21316550.844                          48.800          38.100

 131697786.646 6 102621659.83242                  25061250.852
                  25061255.941                          37.000          16.300

 116967041.274 7  91143183.37645                  22258088.000
                  22258091.918                          43.900          31.300

 120104260.978 7  93587791.81345                  22855087.578
                  22855088.430                          46.600          34.000

 121492595.605 7  94669559.551 7  90724999.564 7  23119261.930
  23119268.957    23119267.926    23119266.301          43.200          42.100
        47.000
 119957306.534 7  93473255.213 7  89578537.952 7  22827112.664
  22827119.504    22827120.133    22827116.988          42.700          44.100
        46.600
 105402882.148 8  82132133.803 8                  20057486.172
  20057488.949    20057488.504                          51.500          50.800

 115051062.226 8  89650188.637 7  85914766.393 8  21893479.508
  21893485.051    21893484.754    21893481.883          48.700          46.400
        49.600
 121496631.169 7  94497391.265 6                  22728450.781    22728450.391
  22728455.078    22728454.910                          43.700          41.800

 106227230.866 7                                  19906932.523    19906931.172
                                                        45.200

 115841059.817 7  90098610.407 7                  21640076.680    21640076.195
  21640080.520    21640080.102                          47.500          46.300

 107936060.544 8  83950283.547 8                  20212946.063    20212945.684
  20212947.523    20212947.301                          49.200          49.100

 128932984.049 6 100281224.382 6                  24128040.750    24128040.027
  24128045.469    24128044.375                          38.800          40.900

 106581507.365 7  82896743.513 7                  19952270.484    19952269.691
  19952270.309    19952271.676                          45.800          45.000

 125613334.981 7  97699259.521 7                  23531610.258    23531609.594
  23531614.836    23531614.664                          42.700          42.000

 19 10  7  0  0 50.0000000  0 19G01G03G10G11G14G16G18G22G25G26G31G32
                                R05R06R07R09R15R16R22
 119120362.684 7  92821061.537 7  88953517.129 8  22667848.266
  22667854.262    22667855.309    22667851.285          46.800          44.300
        48.700
 127446347.299 6  99308863.218 7  95170993.886 7  24252236.406
  24252243.379    24252243.105    24252241.184          40.600          42.400
        44.700
 119341750.153 7  92993569.989 7  89118839.775 8  22709974.539
  22709981.281    22709981.082    22709976.531          46.200          45.400
        48.300
 127449901.123 6  99311632.89043                  24252914.156
                  24252917.918                          39.400          19.600

 112021425.606 7  87289462.29846                  21316958.570
                  21316961.457                          47.800          38.700

 131679960.218 5 102607769.10342                  25057859.414
                  25057863.633                          35.800          16.900

 116975576.056 7  91149833.85345                  22259711.938
                  22259716.047                          44.500          30.400

 120090531.273 7  93577093.34045                  22852474.742
                  22852475.660                          46.700          33.900

 121498261.808 7  94673974.796 6  90729230.825 7  23120340.320
  23120346.195    23120346.094    23120344.426          42.800          41.300
        47.100
 119941546.764 7  93460974.904 7  89566769.321 7  22824114.141
  22824120.781    22824121.035    22824117.848          43.200          44.600
        46.800
 105406294.348 8  82134792.657 8                  20058135.023
  20058138.148    20058137.766                          51.900          50.800

 115057737.279 8  89655389.979 7  85919751.006 8  21894749.609
  21894755.375    21894755.039    21894751.922          48.200          46.400
        49.500
 121507907.539 7  94506161.753 6                  22730560.797    22730560.250
  22730564.258    22730564.547                          43.900          40.800

 106225170.289 7                                  19906546.695    19906544.934
                                                        45.000

 115827784.530 7  90088285.184 7                  21637596.961    21637596.320
  21637601.434    21637600.309                          47.200          47.000

 107921522.035 8  83938975.822 8                  20210223.641    20210222.867
  20210224.922    20210224.734                          48.900          49.300

 128953797.032 6 100297412.264 6                  24131934.914    24131934.363
  24131939.457    24131939.320                          38.900          40.000

 106591119.370 7  82904219.519 7                  19954069.906    19954069.289
  19954070.188    19954071.156                          46.000          45.100

 125622550.709 7  97706427.301 6                  23533337.016    23533336.129
  23533341.070    23533341.234                          43.000          40.900

 19 10  7  0  0 55.0000000  0 19G01G03G10G11G14G16G18G22G25G26G31G32
                                R05R06R07R09R15R16R22
 119120851.516 7  92821442.427 7  88953882.159 8  22667941.148
  22667947.586    22667948.406    22667944.297          46.400          44.600
        48.700
 127429627.695 6  99295834.978 7  95158508.456 7  24249054.578
  24249062.313    24249061.777    24249059.707          39.000          42.200
        45.300
 119356245.187 7  93004864.816 7  89129663.996 8  22712732.328
  22712739.465    22712739.219    22712734.820          46.500          45.700
        48.400
 127457372.451 6  99317454.67843                  24254336.398
                  24254340.195                          39.400          19.900

 112023585.743 8  87291145.52546                  21317369.289
                  21317372.344                          48.000          38.400

 131662129.604 5 102593875.18042                  25054466.016
                  25054470.668                          35.700          16.300

 116984123.601 7  91156494.27845                  22261338.602
                  22261342.574                          44.900          30.400

 120076807.466 7  93566399.47345                  22849863.016
                  22849864.145                          46.400          34.200

 121503944.147 7  94678402.599 6  90733474.137 7  23121421.742
  23121428.270    23121427.070    23121425.633          44.000          41.300
        47.700
 119925791.633 7  93448698.194 7  89555004.128 7  22821115.414
  22821122.863    22821122.992    22821119.379          43.000          44.600
        47.000
 105409720.921 8  82137462.726 8                  20058787.344
  20058790.016    20058789.793                          51.500          50.900

 115064415.545 8  89660593.815 7  85924738.016 8  21896021.063
  21896026.262    21896025.859    21896022.840          48.400          46.900
        49.400
 121519192.218 7  94514938.732 6                  22732671.531    22732670.594
  22732674.340    22732675.594                          43.300          41.500

 106223119.190 7                                  19906162.500    19906160.848
                                                        44.700

 115814509.999 7  90077960.570 7                  21635117.133    21635116.344
  21635121.266    21635120.527                          47.600          46.400

 107906999.840 8  83927680.797 8                  20207504.047    20207503.684
  20207505.293    20207505.242                          49.300          48.900

 128974614.171 6 100313603.344 6                  24135831.477    24135830.563
  24135835.781    24135835.105                          38.600          39.400

 106600751.120 7  82911710.891 7                  19955873.242    19955872.184
  19955872.566    19955874.223                          45.600          45.100

 125631780.301 7  97713605.870 6                  23535066.180    23535064.348
  23535069.676    23535070.113                          42.500          41.300

 19 10  7  0  1  0.0000000  0 19G01G03G10G11G14G16G18G22G25G26G31G32
                                R05R06R07R09R15R16R22
 119121355.642 7  92821835.259 7  88954258.608 8  22668036.922
  22668043.098    22668044.219    22668040.102          45.800          44.900
        49.200
 127412909.134 6  99282807.558 6  95146023.836 7  24245873.602
  24245880.207    24245880.477    24245877.793          39.500          41.900
        44.900
 119370748.637 7  93016166.205 7  89140494.495 7  22715492.422
  22715499.148    22715499.246    22715494.742          45.500          45.800
        47.700
 127464852.560 6  99323283.35543                  24255759.156
                  24255763.914                          39.800          19.000

 112025748.234 7  87292830.58946                  21317780.820
                  21317783.906                          47.800          38.700

 131644294.474 6 102579977.71442                  25051072.242
                  25051077.012                          37.000          16.900

 116992683.546 7  91163164.36345                  22262967.344
                  22262971.223                          44.200          30.700

 120063089.043 7  93555709.79545                  22847252.734
                  22847253.566                          45.200          34.000

 121509642.164 7  94682842.578 7  90737729.127 7  23122506.148
  23122512.215    23122511.313    23122510.051          43.200          42.000
        47.800
 119910040.618 7  93436424.674 7  89543242.034 7  22818118.125
  22818125.457    22818125.563    22818122.031          42.800          44.900
        47.000
 105413161.377 8  82140143.594 8                  20059442.234
  20059444.918    20059444.469                          50.900          50.400

 115071096.489 8  89665799.745 7  85929727.038 8  21897292.352
  21897297.617    21897297.297    21897294.219          48.900          45.900
        49.600
 121530484.697 7  94523721.764 7                  22734783.063    22734783.324
  22734788.879    22734787.984                          43.500          42.500

 106221077.056 7                                  19905779.414    19905777.922
                                                        44.700

 115801235.839 7  90067636.225 7                  21632637.125    21632637.023
  21632640.664    21632640.789                          47.800          46.400

 107892493.465 8  83916398.062 8                  20204787.531    20204787.074
  20204788.430    20204788.695                          48.700          49.500

 128995434.779 6 100329797.183 6                  24139727.203    24139726.707
  24139732.406    24139731.133                          38.900          38.600

 106610402.179 7  82919217.258 7                  19957679.789    19957678.895
  19957678.527    19957681.078                          46.100          45.000

 125641023.079 7  97720794.663 6                  23536797.781    23536795.691
  23536802.688    23536801.473                          42.100          41.400

 19 10  7  0  1  5.0000000  0 19G01G03G10G11G14G16G18G22G25G26G31G32
                                R05R06R07R09R15R16R22
 119121875.175 7  92822240.086 7  88954646.571 8  22668135.852
  22668142.371    22668143.293    22668138.945          45.000          45.100
        49.000
 127396191.760 6  99269781.028 7  95133540.104 7  24242692.352
  24242699.145    24242699.293    24242696.816          39.700          42.400
        45.400
 119385260.617 7  93027474.228 7  89151331.357 7  22718254.281
  22718260.305    22718260.914    22718256.289          45.500          45.400
        47.900
 127472341.556 6  99329118.92543                  24257184.984
                  24257189.355                          39.400          20.600

 112027913.186 7  87294517.56546                  21318193.180
                  21318195.883                          47.600          38.400

 131626454.976 6 102566076.82942                  25047676.570
                  25047682.375                          37.300          17.400

 117001255.883 7  91169844.09945                  22264598.883
                  22264602.574                          44.300          30.900

 120049376.079 7  93545024.38045                  22844643.117
                  22844644.027                          46.000          34.900

 121515355.902 7  94687294.873 6  90741995.890 7  23123593.148
  23123599.121    23123598.711    23123597.504          43.600          40.800
        47.000
 119894293.829 7  93424154.471 7  89531483.090 7  22815121.367
  22815128.492    22815129.188    22815125.496          42.900          44.100
        47.100
 105416615.768 8  82142835.344 8                  20060099.539
  20060102.285    20060101.855                          51.400          50.600

 115077780.236 8  89671007.849 7  85934718.136 8  21898564.047
  21898569.629    21898569.230    21898566.117          48.400          46.600
        49.900
 121541785.009 7  94532510.900 7                  22736897.703    22736897.426
  22736902.344    22736901.926                          43.600          43.100

 106219044.039 7                                  19905398.203    19905396.883
                                                        44.400

 115787962.307 7  90057312.371 7                  21630157.352    21630157.230
  21630161.234    21630161.148                          47.800          46.700

 107878003.129 8  83905127.801 8                  20202073.641    20202073.168
  20202075.301    20202075.008                          49.000          49.300

 129016259.165 6 100345993.925 6                  24143623.914    24143623.668
  24143627.645    24143627.980                          39.000          38.100

 106620072.595 7  82926738.707 7                  19959490.008    19959489.203
  19959490.316    19959491.445                          45.200          44.700

 125650279.253 7  97727993.915 6                  23538531.867    23538530.316
  23538534.156    23538535.223                          42.700          39.500

 19 10  7  0  1 10.0000000  0 18G01G03G10G11G14G16G18G22G25G26G31G32
                                R05R06R07R09R16R22
 119122410.120 7  92822656.931 7  88955046.046 8  22668237.797
  22668244.223    22668245.039    22668240.840          45.400          44.700
        49.100
 127379475.535 6  99256755.423 7  95121057.227 7  24239511.406
  24239517.922    24239518.191    24239516.000          39.500          42.200
        45.800
 119399781.109 7  93038788.896 7  89162174.576 7  22721016.789
  22721023.617    22721024.102    22721019.422          45.400          45.000
        47.500
 127479839.451 6  99334961.40943                  24258611.055
                  24258616.570                          39.700          20.900

 112030080.607 7  87296206.46546                  21318605.602
                  21318608.535                          47.900          38.600

 131608610.938 6 102552172.37242                  25044281.648
                  25044286.777                          36.900          17.400

 117009840.621 7  91176533.50245                  22266231.930
                  22266236.137                          44.600          30.800

 120035668.611 7  93534343.24045                  22842034.438
                  22842035.652                          47.400          34.100

 121521085.384 7  94691759.397 6  90746274.396 7  23124683.156
  23124690.023    23124689.441    23124687.844          45.000          41.600
        47.400
 119878551.296 7  93411887.562 7  89519727.319 7  22812126.188
  22812133.309    22812133.523    22812130.039          42.600          44.100
        47.300
 105420084.106 8  82145537.944 8                  20060759.344
  20060762.246    20060761.848                          51.300          51.000

 115084466.781 8  89676218.155 7  85939711.347 8  21899836.328
  21899841.902    21899841.723    21899838.480          48.200          46.100
        49.600
 121553093.129 7  94541306.102 7                  22739013.898    22739012.953
  22739018.164    22739017.410                          43.700          42.600

 106217020.139 7                                  19905018.602    19905017.469
                                                        44.500

 115774689.142 7  90046988.809 7                  21627678.508    21627677.852
  21627682.211    21627681.621                          47.400          46.500

 107863528.792 8  83893869.985 8                  20199363.195    20199362.859
  20199364.648    20199364.449                          48.600          49.100

 106629762.317 7  82934275.157 7                  19961304.250    19961302.961
  19961303.781    19961305.266                          45.200          44.800

 125659548.644 7  97735203.453 6                  23540267.875    23540266.980
  23540271.219    23540271.605                          42.700          40.900

 19 10  7  0  1 15.0000000  0 18G01G03G10G11G14G16G18G22G25G26G31G32
                                R05R06R07R09R16R22
 119122960.633 7  92823085.895 7  88955457.132 8  22668342.414
  22668348.773    22668349.852    22668345.504          46.300          44.600
        48.700
 127362760.685 6  99243730.887 6  95108575.379 7  24236331.273
  24236337.352    24236337.301    24236335.371          39.400          41.500
        45.600
 119414310.270 7  93050110.332 7  89173024.284 7  22723782.164
  22723788.730    22723788.805    22723784.191          44.900          45.300
        47.400
 127487346.331 6  99340810.90443                  24260040.117
                  24260045.230                          40.200          19.900

 112032250.688 7  87297897.43246                  21319018.680
                  21319021.484                          47.800          38.200

 131590762.521 6 102538264.54642                  25040885.484
                  25040889.797                          38.000          17.800

 117018437.942 7  91183232.71345                  22267868.563
                  22267872.145                          45.500          30.600

 120021966.830 7  93523666.52445                  22839427.523
                  22839428.414                          46.200          33.800

 121526830.741 7  94696236.300 7  90750564.786 7  23125776.172
  23125783.238    23125782.715    23125780.953          43.700          42.100
        46.900
 119862813.198 7  93399624.141 7  89507974.864 7  22809131.328
  22809138.594    22809138.934    22809135.184          43.000          44.400
        47.600
 105423566.574 8  82148251.553 8                  20061422.484
  20061424.934    20061424.492                          51.900          50.600

 115091156.305 7  89681430.776 7  85944706.765 8  21901109.211
  21901114.996    21901114.703    21901111.496          47.600          46.500
        49.600
 121564409.364 7  94550107.625 7                  22741130.523    22741130.309
  22741134.539    22741134.277                          44.900          43.200

 106215005.466 7                                  19904641.594    19904640.188
                                                        44.500

 115761416.582 8  90036665.703 7                  21625198.875    21625198.223
  21625202.203    21625202.109                          48.000          46.300

 107849070.622 8  83882624.751 8                  20196655.570    20196655.203
  20196657.000    20196656.895                          49.100          49.200

 106639471.537 7  82941826.773 7                  19963121.484    19963120.766
  19963121.418    19963122.758                          45.800          44.700

 125668831.555 7  97742423.513 6                  23542007.070    23542006.258
  23542009.480    23542010.797                          42.400          41.600

 19 10  7  0  1 20.0000000  0 18G01G03G10G11G14G16G18G22G25G26G31G32
                                R05R06R07R09R16R22
 119123526.712 7  92823526.983 7  88955879.846 8  22668450.297
  22668456.645    22668457.625    22668453.121          45.800          44.200
        48.500
 127346047.186 6  99230707.382 6  95096094.545 7  24233149.516
  24233156.516    24233156.695    24233154.668          38.900          41.700
        45.500
 119428848.112 7  93061438.496 7  89183880.448 7  22726548.680
  22726554.516    22726555.199    22726550.805          44.700          45.500
        47.900
 127494862.221 6  99346667.47443                  24261469.711
                  24261475.367                          39.800          20.900

 112034423.363 7  87299590.42646                  21319431.648
                  21319434.813                          47.800          38.600

 131572909.808 6 102524353.33243                  25037488.273
                  25037492.527                          37.900          18.600

 117027047.773 7  91189941.66445                  22269506.695
                  22269510.598                          45.400          31.100

 120008270.731 7  93512994.23945                  22836821.086
                  22836822.113                          46.000          34.000

 121532592.032 7  94700725.610 6  90754867.034 7  23126873.203
  23126879.023    23126878.883    23126877.074          43.700          41.100
        47.800
 119847079.551 7  93387364.150 7  89496225.713 7  22806137.203
  22806144.922    22806144.805    22806141.160          43.300          45.400
        47.800
 105427063.128 8  82150976.155 8                  20062087.539
  20062090.328    20062089.813                          51.000          51.100

 115097848.786 8  89686645.694 7  85949704.403 8  21902382.688
  21902388.461    21902388.152    21902385.098          48.500          45.900
        49.700
 121575733.570 7  94558915.328 7                  22743248.930    22743248.449
  22743252.727    22743252.895                          44.700          42.800

 106213000.100 7                                  19904266.234    19904264.449
                                                        44.900

 115748144.785 8  90026343.187 7                  21622719.102    21622719.219
  21622722.570    21622722.813                          48.100          45.800

 107834628.603 8  83871392.079 8                  20193950.977    20193950.500
  20193952.184    20193952.316                          49.500          49.300

 106649200.187 7  82949393.507 7                  19964942.961    19964941.902
  19964942.691    19964943.980                          45.600          44.800

 125678128.035 6  97749654.056 7                  23543747.742    23543746.566
  23543753.355    23543752.746                          41.400          42.100

 19 10  7  0  1 25.0000000  0 18G01G03G10G11G14G16G18G22G25G26G31G32
                                R05R06R07R09R16R22
 119124107.986 7  92823979.923 7  88956313.914 8  22668560.609
  22668567.223    22668568.027    22668563.867          46.000          43.900
        48.100
 127329334.716 6  99217684.692 7  95083614.467 7  24229970.367
  24229976.434    24229976.625    24229974.133          39.900          42.800
        45.200
 119443394.245 7  93072773.156 7  89194742.833 7  22729316.773
  22729322.730    22729323.297    22729318.980          45.100          45.700
        47.800
 127502386.784 6  99352530.72543                  24262901.969
                  24262907.285                          40.400          20.600

 112036598.296 7  87301285.17746                  21319845.703
                  21319848.695                          46.600          38.900

 131555052.443 6 102510438.57242                  25034090.656
                  25034094.250                          37.700          16.300

 117035669.790 7  91196660.12645                  22271146.867
                  22271151.438                          44.500          30.400

 119994579.996 7  93502326.14045                  22834215.906
                  22834216.824                          45.700          34.100

 121538368.865 7  94705227.047 6  90759180.910 7  23127972.438
  23127978.746    23127978.195    23127976.652          44.100          41.700
        47.500
 119831350.012 7  93375107.398 7  89484479.653 7  22803143.742
  22803151.719    22803151.836    22803147.855          43.400          45.200
        47.300
 105430573.441 8  82153711.469 8                  20062755.445
  20062758.203    20062757.961                          50.500          51.100

 115104543.922 8  89691862.665 7  85954704.003 8  21903656.945
  21903662.805    21903662.332    21903659.055          48.400          45.900
        49.500
 121587065.511 7  94567729.051 7                  22745368.609    22745368.191
  22745372.570    22745372.461                          44.300          42.600

 106211003.707 7                                  19903892.320    19903890.129
                                                        45.200

 115734873.329 7  90016020.946 7                  21620240.148    21620239.898
  21620244.230    21620243.629                          47.800          46.200

 107820202.487 8  83860171.770 8                  20191249.773    20191249.172
  20191251.168    20191250.879                          48.900          49.100

 106658948.017 7  82956975.144 7                  19966767.484    19966766.949
  19966767.883    19966768.859                          45.900          44.800

 125687437.562 6  97756894.761 6                  23545491.961    23545490.941
  23545496.652    23545497.281                          41.000          41.400

 19 10  7  0  1 30.0000000  0 18G01G03G10G11G14G16G18G22G25G26G31G32
                                R05R06R07R09R16R22
 119124704.907 7  92824445.073 7  88956759.672 8  22668673.813
  22668680.961    22668681.797    22668677.492          46.400          44.200
        48.800
 127312623.756 6  99204663.146 7  95071135.482 7  24226789.711
  24226796.492    24226796.652    24226794.039          39.900          42.600
        44.600
 119457949.111 7  93084114.618 7  89205611.733 7  22732086.188
  22732092.590    22732093.121    22732088.539          44.100          44.600
        47.900
 127509920.472 6  99358401.10543                  24264335.633
                  24264340.625                          40.100          20.900

 112038775.966 7  87302982.07046                  21320260.172
                  21320263.105                          47.300          38.600

 131537190.841 6 102496520.34542                  25030690.648
                  25030695.484                          37.400          16.300

 117044304.389 7  91203388.37445                  22272790.391
                  22272794.367                          44.500          30.600

 119980895.088 7  93491662.58645                  22831611.547
                  22831612.547                          46.000          34.300

 121544161.662 7  94709740.911 6  90763506.695 7  23129074.781
  23129081.105    23129080.527    23129079.102          44.400          41.500
        47.300
 119815625.043 7  93362854.188 7  89472736.991 7  22800151.672
  22800159.113    22800159.535    22800155.746          42.500          45.500
        47.500
 105434097.943 8  82156457.843 8                  20063426.211
  20063429.008    20063428.668                          51.200          51.100

 115111242.092 8  89697082.031 7  85959705.884 8  21904931.219
  21904937.156    21904936.922    21904933.738          48.500          46.400
        49.300
 121598405.571 7  94576549.123 7                  22747488.938    22747489.293
  22747493.816    22747493.938                          44.900          42.100

 106209016.571 7                                  19903519.984    19903517.973
                                                        45.300

 115721602.632 7  90005699.303 7                  21617761.617    21617760.590
  21617765.582    21617764.508                          47.900          46.800

 107805792.665 8  83848964.150 8                  20188551.023    20188550.547
  20188552.266    20188552.316                          49.300          49.200

 106668715.367 7  82964571.983 7                  19968595.734    19968595.164
  19968595.684    19968597.246                          45.900          44.700

 125696760.543 7  97764145.995 6                  23547240.266    23547237.672
  23547242.824    23547243.789                          42.100          40.500

 19 10  7  0  1 35.0000000  0 18G01G03G10G11G14G16G18G22G25G26G31G32
                                R05R06R07R09R16R22
 119125317.092 7  92824922.087 7  88957216.819 8  22668790.852
  22668797.023    22668798.223    22668793.969          46.400          43.900
        48.500
 127295913.849 6  99191642.437 7  95058657.295 7  24223609.984
  24223616.895    24223617.039    24223614.238          38.800          43.200
        45.200
 119472512.373 7  93095462.608 7  89216486.874 7  22734857.781
  22734863.941    22734864.152    22734859.754          44.600          45.600
        47.800
 127517462.822 6  99364278.25743                  24265770.313
                  24265775.867                          39.200          20.600

 112040955.958 7  87304680.76146                  21320674.727
                  21320678.055                          47.800          38.200

 131519324.714 6 102482598.72142                  25027291.250
                  25027295.570                          36.400          16.300

 117052951.254 7  91210126.18545                  22274435.617
                  22274439.742                          44.200          31.100

 119967215.628 7  93481003.26945                  22829008.445
                  22829009.484                          46.000          34.400

 121549970.034 7  94714266.945 6  90767844.138 7  23130179.797
